{
"type": "FeatureCollection",
"crs": { "type": "name", "properties": { "name": "urn:ogc:def:crs:OGC:1.3:CRS84" } },
                                                                                
"features": [
{ "type": "Feature", "properties": { "NAME": "Magnolia Plantation", "TYPE": "Activity", "STREET": "3550 Ashley River Rd", "CITY": "Charleston", "STATE": "SC", "ZIP": "29414", "LINK": "www.magnoliaplantation.com", "addrtype": "street_address", "addrlocat": "ROOFTOP" }, "geometry": { "type": "Point", "coordinates": [ -80.0834755, 32.8752947 ] } },
{ "type": "Feature", "properties": { "NAME": "Boone Hall Plantation", "TYPE": "Activity", "STREET": "1235 Long Point Rd", "CITY": "Mount Pleasant", "STATE": "SC", "ZIP": "29464", "LINK": "www.boonehallplantation.com", "addrtype": "street_address", "addrlocat": "RANGE_INTERPOLATED" }, "geometry": { "type": "Point", "coordinates": [ -79.8262407, 32.8472021 ] } },
{ "type": "Feature", "properties": { "NAME": "Middleton Place", "TYPE": "Activity", "STREET": "4300 Ashley River Rd", "CITY": "Charleston", "STATE": "SC", "ZIP": "29414", "LINK": "www.middletonplace.org", "addrtype": "street_address", "addrlocat": "ROOFTOP" }, "geometry": { "type": "Point", "coordinates": [ -80.1365051, 32.8997941 ] } },
{ "type": "Feature", "properties": { "NAME": "Kayaking on Shem Creek", "TYPE": "Activity", "STREET": "Shrimp Boat Ln", "CITY": "Mount Pleasant", "STATE": "SC", "ZIP": "29464", "LINK": "http:\/\/kayakcharlestonsc.com\/index.php\/activities-and-rentals\/kayak-canoe-and-paddleboard-rentals", "addrtype": "route", "addrlocat": "GEOMETRIC_CENTER" }, "geometry": { "type": "Point", "coordinates": [ -79.8818437, 32.7934463 ] } },
{ "type": "Feature", "properties": { "NAME": "Rainbow Row", "TYPE": "Activity", "STREET": "83 E. Bay St", "CITY": "Charleston", "STATE": "SC", "ZIP": "29401", "LINK": "www.freetoursbyfoot.com\/what-is-rainbow-row\/", "addrtype": "street_address", "addrlocat": "ROOFTOP" }, "geometry": { "type": "Point", "coordinates": [ -79.927459, 32.775366 ] } },
{ "type": "Feature", "properties": { "NAME": "Arthur Ravenel Bridge", "TYPE": "Activity", "STREET": "Arthur Ravenel Jr Bridge", "CITY": "Charleston", "STATE": "SC", "ZIP": "29403", "LINK": "http:\/\/www.cooperriverbridge.org\/", "addrtype": "route", "addrlocat": "GEOMETRIC_CENTER" }, "geometry": { "type": "Point", "coordinates": [ -79.9318458, 32.8049283 ] } },
{ "type": "Feature", "properties": { "NAME": "City Market", "TYPE": "Activity", "STREET": "188 Meeting St", "CITY": "Charleston", "STATE": "SC", "ZIP": "29401", "LINK": "http:\/\/www.thecharlestoncitymarket.com\/", "addrtype": "premise", "addrlocat": "ROOFTOP" }, "geometry": { "type": "Point", "coordinates": [ -79.9312273, 32.780754 ] } },
{ "type": "Feature", "properties": { "NAME": "Folly Beach", "TYPE": "Activity", "STREET": "101 E Arctic Ave", "CITY": "Folly Beach", "STATE": "SC", "ZIP": "29439", "LINK": "www.visitfolly.org", "addrtype": "street_address", "addrlocat": "ROOFTOP" }, "geometry": { "type": "Point", "coordinates": [ -79.9396141, 32.6547991 ] } },
{ "type": "Feature", "properties": { "NAME": "Haunted Pub Crawl", "TYPE": "Activity", "STREET": "18 Anson St", "CITY": "Charleston", "STATE": "SC", "ZIP": "29401", "LINK": "https:\/\/bulldogtours.com\/blog\/2016\/09\/01\/haunted-pub-crawl-market\/", "addrtype": "premise", "addrlocat": "ROOFTOP" }, "geometry": { "type": "Point", "coordinates": [ -79.9289522, 32.7821197 ] } },
{ "type": "Feature", "properties": { "NAME": "Fort Sumter", "TYPE": "Activity", "STREET": "340 Concord St", "CITY": "Charleston", "STATE": "SC", "ZIP": "29401", "LINK": "http:\/\/www.fortsumtertours.com\/", "addrtype": "street_address", "addrlocat": "ROOFTOP" }, "geometry": { "type": "Point", "coordinates": [ -79.9253181, 32.790476 ] } },
{ "type": "Feature", "properties": { "NAME": "Pawpaw", "TYPE": "Dinner", "STREET": "209 E. Bay St", "CITY": "Charleston", "STATE": "SC", "ZIP": "29401", "LINK": "www.pawpawrestaurant.com", "addrtype": "street_address", "addrlocat": "ROOFTOP" }, "geometry": { "type": "Point", "coordinates": [ -79.9273831, 32.7802715 ] } },
{ "type": "Feature", "properties": { "NAME": "Le Farfelle", "TYPE": "Dinner", "STREET": "15 Beaufain St", "CITY": "Charleston", "STATE": "SC", "ZIP": "29401", "LINK": "lefarfellecharleston.com", "addrtype": "street_address", "addrlocat": "ROOFTOP" }, "geometry": { "type": "Point", "coordinates": [ -79.9344117, 32.7807033 ] } },
{ "type": "Feature", "properties": { "NAME": "Darling Oyster Bar", "TYPE": "Dinner", "STREET": "513 King St", "CITY": "Charleston", "STATE": "SC", "ZIP": "29403", "LINK": "thedarling.com", "addrtype": "street_address", "addrlocat": "ROOFTOP" }, "geometry": { "type": "Point", "coordinates": [ -79.9395932, 32.7903661 ] } },
{ "type": "Feature", "properties": { "NAME": "Avila", "TYPE": "Lunch", "STREET": "141 Calhoun St", "CITY": "Charleston", "STATE": "SC", "ZIP": "29401", "LINK": "avilacharleston.com", "addrtype": "premise", "addrlocat": "ROOFTOP" }, "geometry": { "type": "Point", "coordinates": [ -79.9351984, 32.7861206 ] } },
{ "type": "Feature", "properties": { "NAME": "Jeni's", "TYPE": "Snack", "STREET": "501 King St", "CITY": "Charleston", "STATE": "SC", "ZIP": "29403", "LINK": "www.jenis.com", "addrtype": "premise", "addrlocat": "ROOFTOP" }, "geometry": { "type": "Point", "coordinates": [ -79.9395466, 32.7900333 ] } },
{ "type": "Feature", "properties": { "NAME": "Goat Sheep Cow", "TYPE": "Snack", "STREET": "106 Church St", "CITY": "Charleston", "STATE": "SC", "ZIP": "29401", "LINK": "goatsheepcow.com", "addrtype": "premise", "addrlocat": "ROOFTOP" }, "geometry": { "type": "Point", "coordinates": [ -79.9290785, 32.7763784 ] } },
{ "type": "Feature", "properties": { "NAME": "Callie's Hot Little Biscuit", "TYPE": "Breakfast", "STREET": "476 King St", "CITY": "Charleston", "STATE": "SC", "ZIP": "29403", "LINK": "calliesbiscuits.com", "addrtype": "street_address", "addrlocat": "ROOFTOP" }, "geometry": { "type": "Point", "coordinates": [ -79.9388654, 32.7900139 ] } },
{ "type": "Feature", "properties": { "NAME": "Butcher & Bee", "TYPE": "Brunch", "STREET": "1085 Morrison Dr", "CITY": "Charleston", "STATE": "SC", "ZIP": "29403", "LINK": "butcherandbee.com", "addrtype": "street_address", "addrlocat": "ROOFTOP" }, "geometry": { "type": "Point", "coordinates": [ -79.9480619, 32.810109 ] } },
{ "type": "Feature", "properties": { "NAME": "Poogan's Porch", "TYPE": "Brunch", "STREET": "72 Queen St", "CITY": "Charleston", "STATE": "SC", "ZIP": "29401", "LINK": "www.poogansporch.com", "addrtype": "premise", "addrlocat": "ROOFTOP" }, "geometry": { "type": "Point", "coordinates": [ -79.931931, 32.7781321 ] } },
{ "type": "Feature", "properties": { "NAME": "Edmund's Oast", "TYPE": "Drinks", "STREET": "1081 Morrison Dr", "CITY": "Charleston", "STATE": "SC", "ZIP": "29403", "LINK": "edmundsoast.com", "addrtype": "premise", "addrlocat": "ROOFTOP" }, "geometry": { "type": "Point", "coordinates": [ -79.9473478, 32.8099229 ] } },
{ "type": "Feature", "properties": { "NAME": "The Ordinary", "TYPE": "Drinks", "STREET": "544 King St", "CITY": "Charleston", "STATE": "SC", "ZIP": "29403", "LINK": "eattheordinary.com", "addrtype": "premise", "addrlocat": "ROOFTOP" }, "geometry": { "type": "Point", "coordinates": [ -79.940409, 32.7922391 ] } },
{ "type": "Feature", "properties": { "NAME": "Freehouse Brewery", "TYPE": "Brewery", "STREET": "2895 Pringle St", "CITY": "North Charleston", "STATE": "SC", "ZIP": "29405", "LINK": "freehousebeer.com", "addrtype": "street_address", "addrlocat": "RANGE_INTERPOLATED" }, "geometry": { "type": "Point", "coordinates": [ -80.002113, 32.8424301 ] } },
{ "type": "Feature", "properties": { "NAME": "Revelry Brewing", "TYPE": "Brewery", "STREET": "10 Conroy St", "CITY": "Charleston", "STATE": "SC", "ZIP": "29403", "LINK": "revelrybrewingco.com", "addrtype": "street_address", "addrlocat": "ROOFTOP" }, "geometry": { "type": "Point", "coordinates": [ -79.94501, 32.807076 ] } },
{ "type": "Feature", "properties": { "NAME": "Westbrook Brewing", "TYPE": "Brewery", "STREET": "510 Ridge Rd", "CITY": "Mount Pleasant", "STATE": "SC", "ZIP": "29464", "LINK": "westbrookbrewing.com", "addrtype": "premise", "addrlocat": "ROOFTOP" }, "geometry": { "type": "Point", "coordinates": [ -79.8767904, 32.8466834 ] } },
{ "type": "Feature", "properties": { "NAME": "The Daily", "TYPE": "Breakfast", "STREET": "652 King St", "CITY": "Charleston", "STATE": "SC", "ZIP": "29403", "LINK": "shopthedaily.com", "addrtype": "premise", "addrlocat": "ROOFTOP" }, "geometry": { "type": "Point", "coordinates": [ -79.9434392, 32.796196 ] } },
{ "type": "Feature", "properties": { "NAME": "Black Tap Coffee", "TYPE": "Breakfast", "STREET": "70 Beaufain St", "CITY": "Charleston", "STATE": "SC", "ZIP": "29401", "LINK": "blacktapcoffee.com", "addrtype": "street_address", "addrlocat": "ROOFTOP" }, "geometry": { "type": "Point", "coordinates": [ -79.9375864, 32.7800153 ] } },
{ "type": "Feature", "properties": { "NAME": "AirBNB", "TYPE": "Home", "STREET": "5 Penn Avenue", "CITY": "Charleston", "STATE": "SC", "ZIP": "29407", "LINK": "N\/A", "addrtype": null, "addrlocat": null }, "geometry": { "type": "Point", "coordinates": [ -79.98414245645958, 32.790306296114075 ] } }
]
}
